[
  {
    "name": "SPEC S WINES SPIRITS & FI #153",
    "address": "2900 W UNIVERSITY DR SUITE 100",
    "city": "MCKINNEY",
    "state": "TX",
    "zip": "75071",
    "phone": "",
    "type": "",
    "lat": 33.2175501,
    "lng": -96.6524816,
    "products": [
      "Moonlight Mayhem",
      "Moonlight Mayhem 2 White Port Wolf",
      "Moonlight Mayhem Extended Cut"
    ]
  },
  {
    "name": "SPEC S LIQUOR #150  SPEC S WIN",
    "address": "9500 N CENTRAL EXPRESSWAY SUIT",
    "city": "DALLAS",
    "state": "TX",
    "zip": "75231",
    "phone": "",
    "type": "",
    "lat": 32.8783782,
    "lng": -96.7692799,
    "products": [
      "Moonlight Mayhem",
      "Moonlight Mayhem 2 White Port Wolf",
      "Moonlight Mayhem Extended Cut"
    ]
  },
  {
    "name": "SPEC S WINES SPIRITS & FI #100",
    "address": "5219 DEZAVALA ROAD #100",
    "city": "SAN ANTONIO",
    "state": "TX",
    "zip": "78249",
    "phone": "",
    "type": "",
    "lat": 29.5660199,
    "lng": -98.5880706,
    "products": [
      "Moonlight Mayhem",
      "Moonlight Mayhem 2 White Port Wolf",
      "Moonlight Mayhem Extended Cut"
    ]
  },
  {
    "name": "SPEC S LIQUOR WINE BEER & #223",
    "address": "12425 SOUTH FWY",
    "city": "FORT WORTH",
    "state": "TX",
    "zip": "76028",
    "phone": "",
    "type": "",
    "lat": 32.5767076,
    "lng": -97.3172493,
    "products": [
      "Moonlight Mayhem",
      "Moonlight Mayhem 2 White Port Wolf",
      "Moonlight Mayhem Extended Cut"
    ]
  },
  {
    "name": "SPEC S WINES SPIRITS & FIN#221",
    "address": "19000 LIMESTONE COMMERCIAL DR",
    "city": "PFLUGERVILLE",
    "state": "TX",
    "zip": "78660",
    "phone": "",
    "type": "",
    "lat": 30.471885,
    "lng": -97.5970211,
    "products": [
      "Moonlight Mayhem",
      "Moonlight Mayhem 2 White Port Wolf",
      "Moonlight Mayhem Extended Cut"
    ]
  },
  {
    "name": "GRP SPIRITS",
    "address": "1010 ISUZU PARKWAY",
    "city": "GRAND PRAIRIE",
    "state": "TX",
    "zip": "75050",
    "phone": "",
    "type": "",
    "lat": 32.8029176,
    "lng": -97.0509943,
    "products": [
      "Moonlight Mayhem",
      "Moonlight Mayhem 2 White Port Wolf",
      "Moonlight Mayhem Extended Cut",
      "Quadraforce Blended Bourbon",
      "Ryes of the Robot Extended Cut",
      "Ryes of the Robots"
    ]
  },
  {
    "name": "SPEC S WINES SPIRITS&FINER#107",
    "address": "6816 SLIDE ROAD SUITE 12",
    "city": "LUBBOCK",
    "state": "TX",
    "zip": "79424",
    "phone": "",
    "type": "",
    "lat": 33.531616,
    "lng": -101.9245,
    "products": [
      "Moonlight Mayhem",
      "Moonlight Mayhem 2 White Port Wolf",
      "Moonlight Mayhem Extended Cut"
    ]
  },
  {
    "name": "SPEC S WINES SPIRITS & #226",
    "address": "1151 FM 407",
    "city": "LEWISVILLE",
    "state": "TX",
    "zip": "75077",
    "phone": "",
    "type": "",
    "lat": 33.0717529,
    "lng": -97.0223818,
    "products": [
      "Moonlight Mayhem",
      "Moonlight Mayhem 2 White Port Wolf",
      "Moonlight Mayhem Extended Cut"
    ]
  },
  {
    "name": "SPEC S WINES SPIRITS & FIN#178",
    "address": "9564 CITADEL WAY DRIVE",
    "city": "FORT WORTH",
    "state": "TX",
    "zip": "76177",
    "phone": "",
    "type": "",
    "lat": 32.9137938,
    "lng": -97.3205568,
    "products": [
      "Moonlight Mayhem",
      "Moonlight Mayhem 2 White Port Wolf",
      "Moonlight Mayhem Extended Cut"
    ]
  },
  {
    "name": "SPEC S WINE SPIRITS AND FI#53",
    "address": "8416 KATY FREEWAY",
    "city": "SPRING VALLEY",
    "state": "TX",
    "zip": "77024",
    "phone": "",
    "type": "",
    "lat": 29.7852211,
    "lng": -95.4942904,
    "products": [
      "Moonlight Mayhem",
      "Moonlight Mayhem 2 White Port Wolf",
      "Moonlight Mayhem Extended Cut"
    ]
  },
  {
    "name": "SPEC S WINE SPIRITS AND FI#71",
    "address": "3902 BISSONNET",
    "city": "HOUSTON",
    "state": "TX",
    "zip": "77005",
    "phone": "",
    "type": "",
    "lat": 29.7229366,
    "lng": -95.4397006,
    "products": [
      "Moonlight Mayhem",
      "Moonlight Mayhem 2 White Port Wolf",
      "Moonlight Mayhem Extended Cut"
    ]
  },
  {
    "name": "SPECS WINE SPIRITS & FINER#190",
    "address": "3371 RENNER RD",
    "city": "PLANO",
    "state": "TX",
    "zip": "75074",
    "phone": "",
    "type": "",
    "lat": 32.9977387,
    "lng": -96.6696173,
    "products": [
      "Moonlight Mayhem",
      "Moonlight Mayhem 2 White Port Wolf",
      "Moonlight Mayhem Extended Cut"
    ]
  },
  {
    "name": "SPEC S LIQUORS WINES BEERS#117",
    "address": "12211 CULEBRA RD",
    "city": "SAN ANTONIO",
    "state": "TX",
    "zip": "78253",
    "phone": "",
    "type": "",
    "lat": 29.5066201,
    "lng": -98.7353353,
    "products": [
      "Moonlight Mayhem",
      "Moonlight Mayhem 2 White Port Wolf",
      "Moonlight Mayhem Extended Cut"
    ]
  },
  {
    "name": "SPEC S WINES SPIRITS & FIN#113",
    "address": "11751 BANDERA ROAD",
    "city": "SAN ANTONIO",
    "state": "TX",
    "zip": "78250",
    "phone": "",
    "type": "",
    "lat": 29.5496742,
    "lng": -98.669274,
    "products": [
      "Moonlight Mayhem",
      "Moonlight Mayhem 2 White Port Wolf",
      "Moonlight Mayhem Extended Cut"
    ]
  },
  {
    "name": "SPEC S LIQUOR STORE #15 SPEC S",
    "address": "25044 IH 45 NORTH",
    "city": "SPRING",
    "state": "TX",
    "zip": "77386",
    "phone": "",
    "type": "",
    "lat": 30.1263599,
    "lng": -95.4414062,
    "products": [
      "Moonlight Mayhem",
      "Moonlight Mayhem 2 White Port Wolf",
      "Moonlight Mayhem Extended Cut"
    ]
  },
  {
    "name": "SPEC S WAREHOUSE WAREHOUSE OF",
    "address": "2410 SMITH",
    "city": "HOUSTON",
    "state": "TX",
    "zip": "77006",
    "phone": "",
    "type": "",
    "lat": 29.7486195,
    "lng": -95.3773043,
    "products": [
      "Moonlight Mayhem",
      "Moonlight Mayhem 2 White Port Wolf",
      "Moonlight Mayhem Extended Cut"
    ]
  },
  {
    "name": "SPEC S WINE SPIRITS & CIGAR#55",
    "address": "14315 CYPRESS ROSEHILL",
    "city": "CYPRESS",
    "state": "TX",
    "zip": "77429",
    "phone": "",
    "type": "",
    "lat": 29.9755962,
    "lng": -95.700906,
    "products": [
      "Moonlight Mayhem",
      "Moonlight Mayhem 2 White Port Wolf",
      "Moonlight Mayhem Extended Cut"
    ]
  },
  {
    "name": "SPEC S WINES SPIRITS & FIN#222",
    "address": "11089 NORTHWEST FWY",
    "city": "HOUSTON",
    "state": "TX",
    "zip": "77092",
    "phone": "",
    "type": "",
    "lat": 29.8185725,
    "lng": -95.469856,
    "products": [
      "Moonlight Mayhem",
      "Moonlight Mayhem 2 White Port Wolf",
      "Moonlight Mayhem Extended Cut"
    ]
  },
  {
    "name": "SPEC S WINE SPIRITS #175",
    "address": "8110 HWY 78",
    "city": "SACHSE",
    "state": "TX",
    "zip": "75048",
    "phone": "",
    "type": "",
    "lat": 32.9930749,
    "lng": -96.5680673,
    "products": [
      "Moonlight Mayhem",
      "Moonlight Mayhem 2 White Port Wolf",
      "Moonlight Mayhem Extended Cut"
    ]
  },
  {
    "name": "SPEC S WINES SPIRITS & FINER",
    "address": "2750 S HULEN STREET",
    "city": "FORT WORTH",
    "state": "TX",
    "zip": "76109",
    "phone": "",
    "type": "",
    "lat": 32.7115781,
    "lng": -97.3866905,
    "products": [
      "Moonlight Mayhem",
      "Moonlight Mayhem 2 White Port Wolf",
      "Moonlight Mayhem Extended Cut"
    ]
  },
  {
    "name": "SPEC S WINES SPIRITS & FI #187",
    "address": "535 AMERICAN WAY",
    "city": "TERRELL",
    "state": "TX",
    "zip": "75160",
    "phone": "",
    "type": "",
    "lat": 32.7197101,
    "lng": -96.3218879,
    "products": [
      "Moonlight Mayhem",
      "Moonlight Mayhem 2 White Port Wolf",
      "Moonlight Mayhem Extended Cut"
    ]
  },
  {
    "name": "SPEC S WINES  SPIRITS & FIN#61",
    "address": "4970 HWY 290 WEST BLDG 6 UNIT",
    "city": "AUSTIN",
    "state": "TX",
    "zip": "78735",
    "phone": "",
    "type": "",
    "lat": 30.235092,
    "lng": -97.8201392,
    "products": [
      "Moonlight Mayhem",
      "Moonlight Mayhem 2 White Port Wolf",
      "Moonlight Mayhem Extended Cut"
    ]
  },
  {
    "name": "SPEC S WINES SPIRITS #160",
    "address": "4720 BRYANT IRVIN ROAD",
    "city": "FORT WORTH",
    "state": "TX",
    "zip": "76132",
    "phone": "",
    "type": "",
    "lat": 32.6793001,
    "lng": -97.4164842,
    "products": [
      "Moonlight Mayhem",
      "Moonlight Mayhem 2 White Port Wolf",
      "Moonlight Mayhem Extended Cut"
    ]
  },
  {
    "name": "SPEC S LIQUORS  WINES BEER#224",
    "address": "1500 W 35TH ST",
    "city": "AUSTIN",
    "state": "TX",
    "zip": "78703",
    "phone": "",
    "type": "",
    "lat": 30.306601,
    "lng": -97.7490536,
    "products": [
      "Moonlight Mayhem",
      "Moonlight Mayhem 2 White Port Wolf",
      "Moonlight Mayhem Extended Cut"
    ]
  },
  {
    "name": "SPEC S WINES SPIRITS & FI #203",
    "address": "650 SW E CRAWFORD AVE",
    "city": "FATE",
    "state": "TX",
    "zip": "75189",
    "phone": "",
    "type": "",
    "lat": 32.9669111,
    "lng": -96.3710923,
    "products": [
      "Moonlight Mayhem",
      "Moonlight Mayhem 2 White Port Wolf",
      "Moonlight Mayhem Extended Cut"
    ]
  },
  {
    "name": "SPEC S LIQUORS #124",
    "address": "28595 TOMBALL PARKWAY",
    "city": "TOMBALL",
    "state": "TX",
    "zip": "77375",
    "phone": "",
    "type": "",
    "lat": 30.0884997,
    "lng": -95.6348283,
    "products": [
      "Moonlight Mayhem",
      "Moonlight Mayhem 2 White Port Wolf",
      "Moonlight Mayhem Extended Cut"
    ]
  },
  {
    "name": "SPEC S LIQUORS #2 SPEC S WINES",
    "address": "11990 WESTHEIMER",
    "city": "HOUSTON",
    "state": "TX",
    "zip": "77077",
    "phone": "",
    "type": "",
    "lat": 29.7370103,
    "lng": -95.5915153,
    "products": [
      "Moonlight Mayhem",
      "Moonlight Mayhem 2 White Port Wolf",
      "Moonlight Mayhem Extended Cut"
    ]
  },
  {
    "name": "SPEC S WINES SPIRITS & FIN#225",
    "address": "900 S SH 78",
    "city": "LEVON",
    "state": "TX",
    "zip": "75166",
    "phone": "",
    "type": "",
    "lat": 33.0220209,
    "lng": -96.4541762,
    "products": [
      "Moonlight Mayhem",
      "Moonlight Mayhem 2 White Port Wolf",
      "Moonlight Mayhem Extended Cut"
    ]
  },
  {
    "name": "SPEC S WINES & SPIRITS SP #128",
    "address": "15055 INWOOD ROAD",
    "city": "ADDISON",
    "state": "TX",
    "zip": "75001",
    "phone": "",
    "type": "",
    "lat": 32.9536506,
    "lng": -96.8312331,
    "products": [
      "Moonlight Mayhem",
      "Moonlight Mayhem 2 White Port Wolf",
      "Moonlight Mayhem Extended Cut"
    ]
  },
  {
    "name": "SPEC S WINES SPIRITS & FIN#138",
    "address": "950 S PRESTON RD",
    "city": "PROSPER",
    "state": "TX",
    "zip": "75078",
    "phone": "",
    "type": "",
    "lat": 33.2269057,
    "lng": -96.8001088,
    "products": [
      "Moonlight Mayhem",
      "Moonlight Mayhem 2 White Port Wolf",
      "Moonlight Mayhem Extended Cut"
    ]
  },
  {
    "name": "SPEC S WINE SPIRITS & FINER#39",
    "address": "4102 FM 762",
    "city": "ROSENBERG",
    "state": "TX",
    "zip": "77469",
    "phone": "",
    "type": "",
    "lat": 29.5430923,
    "lng": -95.7449981,
    "products": [
      "Moonlight Mayhem",
      "Moonlight Mayhem 2 White Port Wolf",
      "Moonlight Mayhem Extended Cut"
    ]
  },
  {
    "name": "SPEC S WINES SPIRITS & FIN#202",
    "address": "3705 RAGLAND RD",
    "city": "GRAND PRAIRIE",
    "state": "TX",
    "zip": "75052",
    "phone": "",
    "type": "",
    "lat": 32.6102088,
    "lng": -97.0731141,
    "products": [
      "Moonlight Mayhem",
      "Moonlight Mayhem 2 White Port Wolf",
      "Moonlight Mayhem Extended Cut"
    ]
  },
  {
    "name": "SPEC S WINE SPIRITS & FINE#191",
    "address": "971 N HIGHWAY 67 STE 400",
    "city": "CEDAR HILL",
    "state": "TX",
    "zip": "75104",
    "phone": "",
    "type": "",
    "lat": 32.6058343,
    "lng": -96.9312119,
    "products": [
      "Moonlight Mayhem",
      "Moonlight Mayhem 2 White Port Wolf",
      "Moonlight Mayhem Extended Cut"
    ]
  },
  {
    "name": "M & R LIQUORS VIII",
    "address": "13133 LOUETTA RD #B",
    "city": "CYPRESS",
    "state": "TX",
    "zip": "77429",
    "phone": "",
    "type": "",
    "lat": 29.9950452,
    "lng": -95.6216258,
    "products": [
      "Moonlight Mayhem Extended Cut",
      "Ryes of the Robots"
    ]
  },
  {
    "name": "WHISKEY CHARLIE S LIQUOR #7",
    "address": "6823 S FRY ROAD SUITE 100",
    "city": "HOUSTON",
    "state": "TX",
    "zip": "77494",
    "phone": "",
    "type": "",
    "lat": 29.7138264,
    "lng": -95.7778427,
    "products": [
      "Moonlight Mayhem 2 White Port Wolf",
      "Ryes of the Robot Extended Cut"
    ]
  },
  {
    "name": "WHISKEY CHARLIE S LIQUOR #4",
    "address": "9818 FRY ROAD SUITE 120",
    "city": "CYPRESS",
    "state": "TX",
    "zip": "77433",
    "phone": "",
    "type": "",
    "lat": 29.9285781,
    "lng": -95.7264454,
    "products": [
      "Moonlight Mayhem"
    ]
  },
  {
    "name": "Vista Wine and Spirits - WAREHOUSE",
    "address": "SFDW Inc",
    "city": "Santee",
    "state": "CA",
    "zip": "92071",
    "phone": "(619) 663-4134",
    "type": "",
    "lat": 32.8678728,
    "lng": -116.9970153,
    "products": [
      "Moonlight Mayhem",
      "Quadraforce Blended Bourbon"
    ]
  },
  {
    "name": "Remedy Liquor",
    "address": "Remedy Wholesale LLC",
    "city": "Glendale",
    "state": "CA",
    "zip": "91201",
    "phone": "(818) 549-1055",
    "type": "",
    "lat": 34.1629905,
    "lng": -118.2935891,
    "products": [
      "Moonlight Mayhem",
      "Moonlight Mayhem 2 White Port Wolf",
      "Ryes of the Robot Extended Cut",
      "Ryes of the Robots"
    ]
  },
  {
    "name": "Vendome Wine & Spirits - Toluca Lak",
    "address": "10600 Riverside Dr",
    "city": "Toluca Lake",
    "state": "CA",
    "zip": "91602",
    "phone": "(818) 766-9593",
    "type": "",
    "lat": 34.1521792,
    "lng": -118.3614806,
    "products": [
      "Moonlight Mayhem",
      "Moonlight Mayhem 2 White Port Wolf",
      "Moonlight Mayhem Extended Cut",
      "Quadraforce Blended Bourbon",
      "Ryes of the Robot Extended Cut",
      "Ryes of the Robots"
    ]
  },
  {
    "name": "Littlebear Bottleshop",
    "address": "Littlebear LLC",
    "city": "Skyforest",
    "state": "CA",
    "zip": "92385",
    "phone": "(909) 744-8861",
    "type": "",
    "lat": 34.2353739,
    "lng": -117.1794216,
    "products": [
      "Moonlight Mayhem",
      "Moonlight Mayhem 2 White Port Wolf",
      "Ryes of the Robots"
    ]
  },
  {
    "name": "Hi-Time Wine Cellars - Costa Mesa",
    "address": "Son Vay Corporation",
    "city": "Costa Mesa",
    "state": "CA",
    "zip": "92627",
    "phone": "(949) 650-8463",
    "type": "",
    "lat": 33.6834047,
    "lng": -117.9073192,
    "products": [
      "Moonlight Mayhem",
      "Moonlight Mayhem 2 White Port Wolf",
      "Quadraforce Blended Bourbon",
      "Ryes of the Robot Extended Cut"
    ]
  },
  {
    "name": "Grapes & Grains",
    "address": "Steve Enterprises Inc",
    "city": "Paso Robles",
    "state": "CA",
    "zip": "93446",
    "phone": "",
    "type": "",
    "lat": 35.6455307,
    "lng": -120.6520284,
    "products": [
      "Moonlight Mayhem",
      "Moonlight Mayhem 2 White Port Wolf",
      "Moonlight Mayhem Extended Cut",
      "Quadraforce Blended Bourbon"
    ]
  },
  {
    "name": "Wine Country The",
    "address": "Kemner Wine  Inc.",
    "city": "Signal Hill",
    "state": "CA",
    "zip": "90755",
    "phone": "(562) 597-8303",
    "type": "",
    "lat": 33.8020217,
    "lng": -118.1678543,
    "products": [
      "Quadraforce Blended Bourbon",
      "Ryes of the Robots"
    ]
  },
  {
    "name": "Legionnaire Saloon The",
    "address": "Spooky Magic Inc / Bourbon Tree Inc",
    "city": "Oakland",
    "state": "CA",
    "zip": "94612",
    "phone": "(510) 289-4425",
    "type": "",
    "lat": 37.8113159,
    "lng": -122.2682245,
    "products": [
      "Moonlight Mayhem",
      "Moonlight Mayhem 2 White Port Wolf",
      "Moonlight Mayhem Extended Cut",
      "Ryes of the Robot Extended Cut",
      "Ryes of the Robots"
    ]
  },
  {
    "name": "Hi Proof Whisky & Spirits",
    "address": "Lebonvin Inc",
    "city": "Fullerton",
    "state": "CA",
    "zip": "92835",
    "phone": "",
    "type": "",
    "lat": 33.9041552,
    "lng": -117.9307584,
    "products": [
      "Moonlight Mayhem",
      "Moonlight Mayhem Extended Cut",
      "Ryes of the Robot Extended Cut",
      "Ryes of the Robots"
    ]
  },
  {
    "name": "Emilio s Beverage Warehouse",
    "address": "Emilio s Beverage Warehouse Inc.",
    "city": "Bellflower",
    "state": "CA",
    "zip": "90706",
    "phone": "(562) 630-8683",
    "type": "",
    "lat": 33.875114,
    "lng": -118.143057,
    "products": [
      "Moonlight Mayhem",
      "Quadraforce Blended Bourbon"
    ]
  },
  {
    "name": "Pour Decisions Liquor",
    "address": "Eak Investment Inc",
    "city": "Monterey",
    "state": "CA",
    "zip": "93940",
    "phone": "(831) 657-5272",
    "type": "",
    "lat": 36.5994168,
    "lng": -121.8924083,
    "products": [
      "Moonlight Mayhem 2 White Port Wolf",
      "Quadraforce Blended Bourbon"
    ]
  },
  {
    "name": "Total Wine & More - 1146 Emeryville",
    "address": "California Fine Wine & Spirits LLC",
    "city": "Emeryville",
    "state": "CA",
    "zip": "94508",
    "phone": "(510) 989-4299",
    "type": "",
    "lat": 37.8395028,
    "lng": -122.2892278,
    "products": [
      "Quadraforce Blended Bourbon"
    ]
  },
  {
    "name": "Mollie Stones-SF 18th St",
    "address": "Albeco Inc",
    "city": "San Francisco",
    "state": "CA",
    "zip": "94114",
    "phone": "(415) 255-8959",
    "type": "",
    "lat": 37.7606086,
    "lng": -122.4363285,
    "products": [
      "Moonlight Mayhem"
    ]
  },
  {
    "name": "Drinkie s Liquor",
    "address": "192 Country Club Gat",
    "city": "Pacific Grove",
    "state": "CA",
    "zip": "93950",
    "phone": "(831) 915-4451",
    "type": "",
    "lat": 36.6092689,
    "lng": -121.9293167,
    "products": [
      "Quadraforce Blended Bourbon",
      "Ryes of the Robot Extended Cut"
    ]
  },
  {
    "name": "Journey Downtown",
    "address": "Journey Cafe Inc",
    "city": "Vacaville",
    "state": "CA",
    "zip": "95688",
    "phone": "(707) 999-0129",
    "type": "",
    "lat": 38.3650643,
    "lng": -121.9551988,
    "products": [
      "Moonlight Mayhem",
      "Moonlight Mayhem Extended Cut",
      "Quadraforce Blended Bourbon",
      "Ryes of the Robot Extended Cut",
      "Ryes of the Robots"
    ]
  },
  {
    "name": "Bob s Liquor - Redding",
    "address": "W Brothers Inc",
    "city": "Redding",
    "state": "CA",
    "zip": "96002",
    "phone": "(530) 222-8048",
    "type": "",
    "lat": 40.542752,
    "lng": -122.35809,
    "products": [
      "Moonlight Mayhem Extended Cut",
      "Ryes of the Robot Extended Cut"
    ]
  },
  {
    "name": "Liquorama",
    "address": "Liquorama Upland Inc",
    "city": "Upland",
    "state": "CA",
    "zip": "91786",
    "phone": "(909) 985-3131",
    "type": "",
    "lat": 34.1083394,
    "lng": -117.6630546,
    "products": [
      "Ryes of the Robots"
    ]
  },
  {
    "name": "Liquor and Food Mart",
    "address": "River N Field Inc",
    "city": "Mountain View",
    "state": "CA",
    "zip": "94040",
    "phone": "(650) 969-0656",
    "type": "",
    "lat": 37.3703911,
    "lng": -122.0810354,
    "products": [
      "Moonlight Mayhem 2 White Port Wolf",
      "Moonlight Mayhem Extended Cut",
      "Ryes of the Robot Extended Cut"
    ]
  },
  {
    "name": "Urban Market & More - Rocklin",
    "address": "Bajwa  Manroop",
    "city": "Rocklin",
    "state": "CA",
    "zip": "95765",
    "phone": "(916) 365-7979",
    "type": "",
    "lat": 38.837962,
    "lng": -121.298581,
    "products": [
      "Moonlight Mayhem Extended Cut",
      "Ryes of the Robot Extended Cut"
    ]
  },
  {
    "name": "Evening Citizen The",
    "address": "You Have No Choice Inc",
    "city": "Palm Springs",
    "state": "CA",
    "zip": "92262",
    "phone": "(761) 424-8301",
    "type": "",
    "lat": 33.8613433,
    "lng": -116.5727815,
    "products": [
      "Ryes of the Robots"
    ]
  },
  {
    "name": "Mollie Stones-SF Pacific Heights",
    "address": "Albeco Inc",
    "city": "San Francisco",
    "state": "CA",
    "zip": "94115",
    "phone": "(415) 567-4902",
    "type": "",
    "lat": 37.7606086,
    "lng": -122.4363285,
    "products": [
      "Moonlight Mayhem"
    ]
  },
  {
    "name": "Johny s Liquor - Montebello",
    "address": "Johny s Inc.",
    "city": "Montebello",
    "state": "CA",
    "zip": "90640",
    "phone": "(323) 721-2391",
    "type": "",
    "lat": 33.998606,
    "lng": -118.121915,
    "products": [
      "Ryes of the Robot Extended Cut"
    ]
  },
  {
    "name": "Old Town Wine and Spirits",
    "address": "Nellys Market Inc.",
    "city": "San Diego",
    "state": "CA",
    "zip": "92110",
    "phone": "(619) 291-4888",
    "type": "",
    "lat": 32.7657318,
    "lng": -117.199996,
    "products": [
      "Moonlight Mayhem Extended Cut",
      "Ryes of the Robots"
    ]
  },
  {
    "name": "Wine.com",
    "address": "Wine.com LLC",
    "city": "San Leandro",
    "state": "CA",
    "zip": "94577",
    "phone": "(415) 248-4455",
    "type": "",
    "lat": 37.7089582,
    "lng": -122.1529616,
    "products": [
      "Moonlight Mayhem Extended Cut"
    ]
  },
  {
    "name": "Servall Market",
    "address": "Servall Market Inc",
    "city": "San Diego",
    "state": "CA",
    "zip": "92103",
    "phone": "(619) 692-3225",
    "type": "",
    "lat": 32.7482028,
    "lng": -117.15175,
    "products": [
      "Moonlight Mayhem Extended Cut"
    ]
  },
  {
    "name": "200 Peachtree",
    "address": "Ste 206 200 Peachtree ST NW",
    "city": "Atlanta",
    "state": "GA",
    "zip": "30303",
    "phone": "(610) 809-9795",
    "type": "",
    "lat": 33.7587168,
    "lng": -84.3876042,
    "products": [
      "Moonlight Mayhem Extended Cut",
      "Quadraforce Blended Bourbon",
      "Ryes of the Robot Extended Cut"
    ]
  },
  {
    "name": "Brandon s Package Store FYTL",
    "address": "965 Glynn St N",
    "city": "Fayetteville",
    "state": "GA",
    "zip": "30214",
    "phone": "(678) 667-6161",
    "type": "",
    "lat": 33.4694163,
    "lng": -84.444655,
    "products": [
      "Moonlight Mayhem",
      "Moonlight Mayhem Extended Cut",
      "Quadraforce Blended Bourbon",
      "Ryes of the Robot Extended Cut",
      "Ryes of the Robots"
    ]
  },
  {
    "name": "Meehan s Public House",
    "address": "200 Peachtree St NW Ste L6",
    "city": "Atlanta",
    "state": "GA",
    "zip": "30303",
    "phone": "",
    "type": "",
    "lat": 33.7587168,
    "lng": -84.3876042,
    "products": [
      "Moonlight Mayhem Extended Cut",
      "Quadraforce Blended Bourbon"
    ]
  },
  {
    "name": "The Beverage Superstore of Grayson",
    "address": "2265 Loganville Hwy",
    "city": "Grayson",
    "state": "GA",
    "zip": "30017",
    "phone": "(770) 995-9509",
    "type": "",
    "lat": 33.8904154,
    "lng": -83.9501555,
    "products": [
      "Moonlight Mayhem",
      "Quadraforce Blended Bourbon",
      "Ryes of the Robot Extended Cut",
      "Ryes of the Robots"
    ]
  },
  {
    "name": "Jax Beverage Superstore Conyers *CL",
    "address": "1897 Hwy 20 SE",
    "city": "Conyers",
    "state": "GA",
    "zip": "30013",
    "phone": "(770) 596-0915",
    "type": "",
    "lat": 33.6370255,
    "lng": -84.0149567,
    "products": [
      "Moonlight Mayhem Extended Cut",
      "Quadraforce Blended Bourbon",
      "Ryes of the Robot Extended Cut"
    ]
  },
  {
    "name": "Bankhead Beverage",
    "address": "1595 Bankhead Hwy",
    "city": "Carrollton",
    "state": "GA",
    "zip": "30116",
    "phone": "",
    "type": "",
    "lat": 33.6029896,
    "lng": -85.0251321,
    "products": [
      "Moonlight Mayhem",
      "Moonlight Mayhem Extended Cut",
      "Quadraforce Blended Bourbon"
    ]
  },
  {
    "name": "Sip Wine & Spirits",
    "address": "3915 Towne Club Parkway Ste C",
    "city": "Cumming",
    "state": "GA",
    "zip": "30041",
    "phone": "(617) 991-8182",
    "type": "",
    "lat": 34.1322008,
    "lng": -84.1276078,
    "products": [
      "Moonlight Mayhem",
      "Moonlight Mayhem Extended Cut",
      "Ryes of the Robot Extended Cut"
    ]
  },
  {
    "name": "Evans Liquors",
    "address": "8782 US-301",
    "city": "Claxton",
    "state": "GA",
    "zip": "30417",
    "phone": "(912) 660-6064",
    "type": "",
    "lat": 32.1805887,
    "lng": -81.891624,
    "products": [
      "Moonlight Mayhem Extended Cut",
      "Quadraforce Blended Bourbon"
    ]
  },
  {
    "name": "Tower Beer & Wine",
    "address": "2161 Piedmont Rd NE",
    "city": "Atlanta",
    "state": "GA",
    "zip": "30324",
    "phone": "(404) 881-0902",
    "type": "",
    "lat": 33.8155841,
    "lng": -84.3660231,
    "products": [
      "Moonlight Mayhem",
      "Quadraforce Blended Bourbon"
    ]
  },
  {
    "name": "ABC Warehouse",
    "address": "1100 Eisenhower DR",
    "city": "Savannah",
    "state": "GA",
    "zip": "31406",
    "phone": "(864) 245-1403",
    "type": "",
    "lat": 32.0067356,
    "lng": -81.0997489,
    "products": [
      "Moonlight Mayhem",
      "Moonlight Mayhem Extended Cut",
      "Quadraforce Blended Bourbon",
      "Ryes of the Robot Extended Cut"
    ]
  },
  {
    "name": "Reliance Enterprises LLC",
    "address": "Ste 110 100 Zoya Lane",
    "city": "Pooler",
    "state": "GA",
    "zip": "31322",
    "phone": "",
    "type": "",
    "lat": 32.0869116,
    "lng": -81.2772561,
    "products": [
      "Moonlight Mayhem Extended Cut"
    ]
  },
  {
    "name": "The Grove Wine & Spirits",
    "address": "1841 Walnut Grove Pkwy",
    "city": "Covington",
    "state": "GA",
    "zip": "30014",
    "phone": "(518) 466-6676",
    "type": "",
    "lat": 33.7454383,
    "lng": -83.8447159,
    "products": [
      "Moonlight Mayhem Extended Cut",
      "Ryes of the Robot Extended Cut"
    ]
  },
  {
    "name": "Sigman Bottle Shop",
    "address": "439 Sigman Rd NW  Ste A",
    "city": "Conyers",
    "state": "GA",
    "zip": "30012",
    "phone": "",
    "type": "",
    "lat": 33.6866429,
    "lng": -84.0028419,
    "products": [
      "Moonlight Mayhem Extended Cut",
      "Ryes of the Robot Extended Cut"
    ]
  },
  {
    "name": "Forsyth World of Beverage",
    "address": "3535 Peachtree Parkway",
    "city": "Suwanee",
    "state": "GA",
    "zip": "30024",
    "phone": "(678) 416-6001",
    "type": "",
    "lat": 34.075699,
    "lng": -84.16312,
    "products": [
      "Ryes of the Robot Extended Cut",
      "Ryes of the Robots"
    ]
  },
  {
    "name": "Mega Beverage Rome",
    "address": "42 Hicks De SE",
    "city": "Rome",
    "state": "GA",
    "zip": "30161",
    "phone": "(706) 584-7795",
    "type": "",
    "lat": 34.2523981,
    "lng": -85.1615972,
    "products": [
      "Quadraforce Blended Bourbon"
    ]
  },
  {
    "name": "Big John s Package Store",
    "address": "5345 A Memorial Dr",
    "city": "Stone Mountain",
    "state": "GA",
    "zip": "30083",
    "phone": "(404) 292-8518",
    "type": "",
    "lat": 33.7986623,
    "lng": -84.2193137,
    "products": [
      "Quadraforce Blended Bourbon"
    ]
  },
  {
    "name": "Jax Superstore",
    "address": "2438 Hancock Dr",
    "city": "Buford",
    "state": "GA",
    "zip": "30190",
    "phone": "(678) 828-7432",
    "type": "",
    "lat": 34.1085039,
    "lng": -83.8790695,
    "products": [
      "Moonlight Mayhem",
      "Moonlight Mayhem Extended Cut",
      "Quadraforce Blended Bourbon"
    ]
  },
  {
    "name": "Carrollton Beverage",
    "address": "1128 N Park Street",
    "city": "Carrollton",
    "state": "GA",
    "zip": "30117",
    "phone": "(205) 200-3078",
    "type": "",
    "lat": 33.6003904,
    "lng": -85.0794403,
    "products": [
      "Moonlight Mayhem",
      "Moonlight Mayhem Extended Cut",
      "Quadraforce Blended Bourbon",
      "Ryes of the Robots"
    ]
  },
  {
    "name": "Liberty World Beverage",
    "address": "3700 Village Way",
    "city": "Braselton",
    "state": "GA",
    "zip": "30517",
    "phone": "(770) 307-0321",
    "type": "",
    "lat": 34.1149065,
    "lng": -83.8204411,
    "products": [
      "Quadraforce Blended Bourbon",
      "Ryes of the Robot Extended Cut",
      "Ryes of the Robots"
    ]
  },
  {
    "name": "Olde Crabapple Bottle Shoppe",
    "address": "12280 Houze Rd",
    "city": "Alpharetta",
    "state": "GA",
    "zip": "30004",
    "phone": "",
    "type": "",
    "lat": 34.0805608,
    "lng": -84.3571625,
    "products": [
      "Moonlight Mayhem",
      "Moonlight Mayhem Extended Cut"
    ]
  },
  {
    "name": "The Wine Store (Johns Creek)",
    "address": "8455 Holcomb Bridge Rd Ste A",
    "city": "Johns Creek",
    "state": "GA",
    "zip": "30022",
    "phone": "",
    "type": "",
    "lat": 33.9859652,
    "lng": -84.2695454,
    "products": [
      "Moonlight Mayhem",
      "Moonlight Mayhem Extended Cut"
    ]
  },
  {
    "name": "Rox Wine & Spirits (Cumming)",
    "address": "910 Peachtree Pkwy",
    "city": "Cumming",
    "state": "GA",
    "zip": "30041",
    "phone": "(404) 579-8252",
    "type": "",
    "lat": 34.1406397,
    "lng": -84.1735461,
    "products": [
      "Moonlight Mayhem",
      "Moonlight Mayhem Extended Cut"
    ]
  },
  {
    "name": "Capitol City Package Store",
    "address": "784 Collier Rd NW",
    "city": "Atlanta",
    "state": "GA",
    "zip": "30318",
    "phone": "(404) 351-7579",
    "type": "",
    "lat": 33.8092035,
    "lng": -84.4138185,
    "products": [
      "Ryes of the Robot Extended Cut",
      "Ryes of the Robots"
    ]
  },
  {
    "name": "Doraville Liquor Store  (TOWER)",
    "address": "5877 Buford Hwy NE",
    "city": "Doraville",
    "state": "GA",
    "zip": "30340",
    "phone": "(770) 458-3273",
    "type": "",
    "lat": 33.9101796,
    "lng": -84.2649243,
    "products": [
      "Ryes of the Robot Extended Cut",
      "Ryes of the Robots"
    ]
  },
  {
    "name": "Gold Rush Spirits",
    "address": "19 Choice Ave.",
    "city": "Dahlonega",
    "state": "GA",
    "zip": "30533",
    "phone": "(770) 369-6169",
    "type": "",
    "lat": 34.5335392,
    "lng": -83.9816394,
    "products": [
      "Moonlight Mayhem",
      "Quadraforce Blended Bourbon"
    ]
  },
  {
    "name": "Twenty Nine Package",
    "address": "4132 Lawrenceville Hwy NW",
    "city": "Lilburn",
    "state": "GA",
    "zip": "30047",
    "phone": "(770) 696-9244",
    "type": "",
    "lat": 33.9030866,
    "lng": -84.1186801,
    "products": [
      "Moonlight Mayhem",
      "Quadraforce Blended Bourbon"
    ]
  },
  {
    "name": "McFarland 400 Wine Spirits Cigars",
    "address": "899 McFarland Pkwy STE 100",
    "city": "Alpharetta",
    "state": "GA",
    "zip": "30004",
    "phone": "(678) 551-5059",
    "type": "",
    "lat": 34.1243654,
    "lng": -84.2232409,
    "products": [
      "Moonlight Mayhem",
      "Quadraforce Blended Bourbon"
    ]
  },
  {
    "name": "County Line Liquors",
    "address": "2201 Gray Hwy  Bldg Single",
    "city": "Macon",
    "state": "GA",
    "zip": "31211",
    "phone": "(478) 258-4649",
    "type": "",
    "lat": 32.8782974,
    "lng": -83.6081044,
    "products": [
      "Moonlight Mayhem",
      "Quadraforce Blended Bourbon"
    ]
  },
  {
    "name": "East Point Package",
    "address": "1805 Washington Ave",
    "city": "East Point",
    "state": "GA",
    "zip": "30344",
    "phone": "",
    "type": "",
    "lat": 33.6762093,
    "lng": -84.4479272,
    "products": [
      "Quadraforce Blended Bourbon",
      "Ryes of the Robot Extended Cut"
    ]
  },
  {
    "name": "Cumming Beverage Mart",
    "address": "1770 Buford Hwy Ste A",
    "city": "Cumming",
    "state": "GA",
    "zip": "30041",
    "phone": "(770) 823-8832",
    "type": "",
    "lat": 34.1608671,
    "lng": -84.115269,
    "products": [
      "Moonlight Mayhem",
      "Quadraforce Blended Bourbon"
    ]
  },
  {
    "name": "Crest Package Store",
    "address": "371 N Central Ave",
    "city": "Hapeville",
    "state": "GA",
    "zip": "30354",
    "phone": "(770) 559-0328",
    "type": "",
    "lat": 33.6544287,
    "lng": -84.400706,
    "products": [
      "Quadraforce Blended Bourbon",
      "Ryes of the Robot Extended Cut"
    ]
  },
  {
    "name": "P C A Package Store",
    "address": "1202 Hogansville Rd",
    "city": "Lagrange",
    "state": "GA",
    "zip": "30241",
    "phone": "(706) 812-0707",
    "type": "",
    "lat": 33.0519179,
    "lng": -85.0053059,
    "products": [
      "Quadraforce Blended Bourbon",
      "Ryes of the Robot Extended Cut"
    ]
  },
  {
    "name": "Hiram Bottle Shop",
    "address": "4547 Jimmy Lee Smith Parkway",
    "city": "Hiram",
    "state": "GA",
    "zip": "30141",
    "phone": "(404) 483-0336",
    "type": "",
    "lat": 33.8919009,
    "lng": -84.7520107,
    "products": [
      "Moonlight Mayhem Extended Cut"
    ]
  },
  {
    "name": "Bottoms Up",
    "address": "22 Bottoms Up Way",
    "city": "Newnan",
    "state": "GA",
    "zip": "30263",
    "phone": "(706) 340-4574",
    "type": "",
    "lat": 33.3261094,
    "lng": -84.7772387,
    "products": [
      "Moonlight Mayhem",
      "Quadraforce Blended Bourbon"
    ]
  },
  {
    "name": "Beverage Haven",
    "address": "2014 Powers Ferry Rd SE Ste 500",
    "city": "Atlanta",
    "state": "GA",
    "zip": "30339",
    "phone": "",
    "type": "",
    "lat": 33.9032691,
    "lng": -84.4604592,
    "products": [
      "Moonlight Mayhem",
      "Quadraforce Blended Bourbon"
    ]
  },
  {
    "name": "Zebulon Package Store",
    "address": "610 Thomaston St",
    "city": "Zebulon",
    "state": "GA",
    "zip": "30295",
    "phone": "(678) 895-6229",
    "type": "",
    "lat": 33.0998352,
    "lng": -84.3436028,
    "products": [
      "Moonlight Mayhem Extended Cut",
      "Quadraforce Blended Bourbon"
    ]
  },
  {
    "name": "124 Package (Lithonia)",
    "address": "7980 Rockbridge Rd",
    "city": "Lithonia",
    "state": "GA",
    "zip": "30058",
    "phone": "(404) 428-0343",
    "type": "",
    "lat": 33.7747979,
    "lng": -84.0763933,
    "products": [
      "Ryes of the Robot Extended Cut",
      "Ryes of the Robots"
    ]
  },
  {
    "name": "Asap Liquors",
    "address": "3595 Canton Rd Ste 13",
    "city": "Marietta",
    "state": "GA",
    "zip": "30066",
    "phone": "(678) 852-8525",
    "type": "",
    "lat": 34.0390829,
    "lng": -84.5297551,
    "products": [
      "Moonlight Mayhem",
      "Quadraforce Blended Bourbon"
    ]
  },
  {
    "name": "Js Beverage Depot",
    "address": "1570 Holcomb Bridge Rd Ste 610",
    "city": "Roswell",
    "state": "GA",
    "zip": "30076",
    "phone": "(404) 951-2442",
    "type": "",
    "lat": 34.0193317,
    "lng": -84.312103,
    "products": [
      "Moonlight Mayhem Extended Cut",
      "Quadraforce Blended Bourbon"
    ]
  },
  {
    "name": "Valkyria Group LLC",
    "address": "6035 Peachtree Rd Ste 106",
    "city": "Doraville",
    "state": "GA",
    "zip": "30360",
    "phone": "(770) 875-8009",
    "type": "",
    "lat": 33.9076991,
    "lng": -84.2880328,
    "products": [
      "Quadraforce Blended Bourbon",
      "Ryes of the Robot Extended Cut"
    ]
  },
  {
    "name": "Nick s Package Store",
    "address": "3210 Tucker Norcross",
    "city": "Tucker",
    "state": "GA",
    "zip": "30084",
    "phone": "",
    "type": "",
    "lat": 33.883804,
    "lng": -84.2207987,
    "products": [
      "Moonlight Mayhem Extended Cut",
      "Quadraforce Blended Bourbon"
    ]
  },
  {
    "name": "Citi Wine and Spirits",
    "address": "223 Moreland Ave SE",
    "city": "Atlanta",
    "state": "GA",
    "zip": "30316",
    "phone": "(404) 688-2744",
    "type": "",
    "lat": 33.7472874,
    "lng": -84.3495587,
    "products": [
      "Quadraforce Blended Bourbon",
      "Ryes of the Robots"
    ]
  },
  {
    "name": "Eric Crane",
    "address": "685 Hartman Road",
    "city": "Austell",
    "state": "GA",
    "zip": "30168",
    "phone": "(404) 572-4111",
    "type": "",
    "lat": 33.7708948,
    "lng": -84.5807266,
    "products": [
      "Moonlight Mayhem",
      "Moonlight Mayhem Extended Cut",
      "Ryes of the Robots"
    ]
  },
  {
    "name": "Brockett Pub House & Grill",
    "address": "4522 East Ponce DeLeon Ave",
    "city": "Clarkston",
    "state": "GA",
    "zip": "30021",
    "phone": "",
    "type": "",
    "lat": 33.8190657,
    "lng": -84.2318611,
    "products": [
      "Moonlight Mayhem",
      "Quadraforce Blended Bourbon"
    ]
  },
  {
    "name": "Max Lager Amer Grill & Brew",
    "address": "320 Peachtree St NE",
    "city": "Atlanta",
    "state": "GA",
    "zip": "30308",
    "phone": "(770) 344-9447",
    "type": "",
    "lat": 33.7633543,
    "lng": -84.387099,
    "products": [
      "Quadraforce Blended Bourbon"
    ]
  },
  {
    "name": "Thomas Davis",
    "address": "685 Hartman Rd",
    "city": "Austell",
    "state": "GA",
    "zip": "30168",
    "phone": "(404) 200-4054",
    "type": "",
    "lat": 33.7708948,
    "lng": -84.5807266,
    "products": [
      "Quadraforce Blended Bourbon"
    ]
  },
  {
    "name": "Bainbridge Bottle Shop",
    "address": "925 E. Shotwell St",
    "city": "Bainbridge",
    "state": "GA",
    "zip": "39819",
    "phone": "(229) 416-6282",
    "type": "",
    "lat": 30.9049244,
    "lng": -84.5639424,
    "products": [
      "Quadraforce Blended Bourbon"
    ]
  },
  {
    "name": "R&J DISCOUNT LIQUOR",
    "address": "3015 E DOUGLAS",
    "city": "WICHITA",
    "state": "KS",
    "zip": "67211",
    "phone": "(316) 681-3761",
    "type": "",
    "lat": 37.6860396,
    "lng": -97.3005935,
    "products": [
      "Moonlight Mayhem",
      "Moonlight Mayhem 2 White Port Wolf",
      "Quadraforce Blended Bourbon"
    ]
  },
  {
    "name": "LIQUOR CABINET",
    "address": "2350 N GREENWICH",
    "city": "WICHITA",
    "state": "KS",
    "zip": "67226",
    "phone": "(316) 978-9285",
    "type": "",
    "lat": 37.7260198,
    "lng": -97.2071034,
    "products": [
      "Moonlight Mayhem 2 White Port Wolf",
      "Ryes of the Robots",
      "Town at the End of Tomorrow"
    ]
  },
  {
    "name": "WS CRAFT SPIRITS",
    "address": "3636 N COMOTARA ST STE3",
    "city": "WICHITA",
    "state": "KS",
    "zip": "67226",
    "phone": "(316) 636-9100",
    "type": "",
    "lat": 37.7509956,
    "lng": -97.2361114,
    "products": [
      "Moonlight Mayhem",
      "Moonlight Mayhem 2 White Port Wolf",
      "Quadraforce Blended Bourbon"
    ]
  },
  {
    "name": "GODDARD CENTRAL W & S",
    "address": "19950 W KELLOGG",
    "city": "GODDARD",
    "state": "KS",
    "zip": "67052",
    "phone": "(316) 696-9100",
    "type": "",
    "lat": 37.6650503,
    "lng": -97.5703886,
    "products": [
      "Moonlight Mayhem",
      "Moonlight Mayhem 2 White Port Wolf"
    ]
  },
  {
    "name": "ABC DISC. LIQ. #1",
    "address": "7310 W CENTRAL",
    "city": "WICHITA",
    "state": "KS",
    "zip": "67212",
    "phone": "(316) 722-4801",
    "type": "",
    "lat": 37.6948165,
    "lng": -97.4272759,
    "products": [
      "Moonlight Mayhem",
      "Moonlight Mayhem 2 White Port Wolf",
      "Quadraforce Blended Bourbon"
    ]
  },
  {
    "name": "DEVLIN RETAIL LIQUOR 29TH A6%",
    "address": "2850 WANAMAKER ROAD",
    "city": "TOPEKA",
    "state": "KS",
    "zip": "66614",
    "phone": "(785) 273-8899",
    "type": "",
    "lat": 39.0151921,
    "lng": -95.76183,
    "products": [
      "Moonlight Mayhem",
      "Moonlight Mayhem Extended Cut",
      "Quadraforce Blended Bourbon",
      "Ryes of the Robot Extended Cut",
      "Ryes of the Robots"
    ]
  },
  {
    "name": "AUBURN WINE & SPIRITS",
    "address": "320 N ROCK ROAD",
    "city": "WICHITA",
    "state": "KS",
    "zip": "67206",
    "phone": "(316) 260-9463",
    "type": "",
    "lat": 37.6913216,
    "lng": -97.2436684,
    "products": [
      "Moonlight Mayhem",
      "Moonlight Mayhem 2 White Port Wolf",
      "Quadraforce Blended Bourbon",
      "Town at the End of Tomorrow"
    ]
  },
  {
    "name": "JACOB LIQUOR EXCHANGE",
    "address": "3049 N ROCK ROAD",
    "city": "WICHITA",
    "state": "KS",
    "zip": "67226",
    "phone": "(316) 636-4566",
    "type": "",
    "lat": 37.7386754,
    "lng": -97.2469969,
    "products": [
      "Moonlight Mayhem",
      "Ryes of the Robots"
    ]
  },
  {
    "name": "GOEBEL LIQUOR",
    "address": "352 S. WEST ST. #400",
    "city": "WICHITA",
    "state": "KS",
    "zip": "67213",
    "phone": "(316) 943-2911",
    "type": "",
    "lat": 37.678671,
    "lng": -97.3886333,
    "products": [
      "Moonlight Mayhem 2 White Port Wolf"
    ]
  },
  {
    "name": "ON THE ROCKS DISCOUNT LIQ",
    "address": "1818 MASSACHUSETTS",
    "city": "LAWRENCE",
    "state": "KS",
    "zip": "66044",
    "phone": "(785) 841-2337",
    "type": "",
    "lat": 38.9514126,
    "lng": -95.2350992,
    "products": [
      "Moonlight Mayhem",
      "Ryes of the Robots",
      "Town at the End of Tomorrow"
    ]
  },
  {
    "name": "AUBURN SPIRITS",
    "address": "13303 W MAPLE",
    "city": "WICHITA",
    "state": "KS",
    "zip": "67235",
    "phone": "(316) 440-1111",
    "type": "",
    "lat": 37.6778175,
    "lng": -97.4952826,
    "products": [
      "Moonlight Mayhem",
      "Moonlight Mayhem 2 White Port Wolf"
    ]
  },
  {
    "name": "TOTAL WINE & MORE #2801",
    "address": "2762 N GREENWICH RD",
    "city": "WICHITA",
    "state": "KS",
    "zip": "67226",
    "phone": "(703) 673-8350",
    "type": "",
    "lat": 37.7332467,
    "lng": -97.206223,
    "products": [
      "Ryes of the Robots"
    ]
  },
  {
    "name": "TOM S WINE & SPIRITS",
    "address": "133 E 47TH ST. SOUTH",
    "city": "WICHITA",
    "state": "KS",
    "zip": "67216",
    "phone": "(316) 522-9463",
    "type": "",
    "lat": 37.6074594,
    "lng": -97.3354508,
    "products": [
      "Moonlight Mayhem 2 White Port Wolf"
    ]
  },
  {
    "name": "JACOB LIQUOR EXCHANGE II",
    "address": "10221 W 21ST STREET",
    "city": "WICHITA",
    "state": "KS",
    "zip": "67212",
    "phone": "(316) 722-2266",
    "type": "",
    "lat": 37.7221229,
    "lng": -97.4602872,
    "products": [
      "Moonlight Mayhem"
    ]
  },
  {
    "name": "MOONLIGHT LIQUORS",
    "address": "265 N. MOONLIGHT ROAD",
    "city": "GARDNER",
    "state": "KS",
    "zip": "66030",
    "phone": "(913) 856-5265",
    "type": "",
    "lat": 38.8143214,
    "lng": -94.9081394,
    "products": [
      "Moonlight Mayhem",
      "Quadraforce Blended Bourbon",
      "Ryes of the Robots"
    ]
  },
  {
    "name": "BOB S LIQUOR & WINE",
    "address": "1801 MAIN ST",
    "city": "WINFIELD",
    "state": "KS",
    "zip": "67156",
    "phone": "(708) 465-4406",
    "type": "",
    "lat": 37.2308485,
    "lng": -96.9974201,
    "products": [
      "Ryes of the Robots"
    ]
  },
  {
    "name": "THE DAM LIQUOR STORE",
    "address": "229 CROSS ST",
    "city": "BURLINGTON",
    "state": "KS",
    "zip": "66839",
    "phone": "(620) 490-0339",
    "type": "",
    "lat": 38.2057959,
    "lng": -95.7368888,
    "products": [
      "Moonlight Mayhem",
      "Ryes of the Robots"
    ]
  },
  {
    "name": "BEER GOGGLES SUPERSTORE",
    "address": "2307 C TUTTLE CRK BLVD",
    "city": "MANHATTAN",
    "state": "KS",
    "zip": "66502",
    "phone": "",
    "type": "",
    "lat": 39.2077994,
    "lng": -96.5729795,
    "products": [
      "Moonlight Mayhem 2 White Port Wolf",
      "Moonlight Mayhem Extended Cut"
    ]
  },
  {
    "name": "BURGARDT RETAIL LIQUOR",
    "address": "3027 E PAWNEE",
    "city": "WICHITA",
    "state": "KS",
    "zip": "67211",
    "phone": "(316) 682-5167",
    "type": "",
    "lat": 37.6496206,
    "lng": -97.3003321,
    "products": [
      "Moonlight Mayhem",
      "Quadraforce Blended Bourbon",
      "Ryes of the Robots"
    ]
  },
  {
    "name": "OXFORD LIQUOR",
    "address": "100 S SUMNER ST",
    "city": "OXFORD",
    "state": "KS",
    "zip": "67119",
    "phone": "(316) 214-1704",
    "type": "",
    "lat": 37.2741003,
    "lng": -97.1686982,
    "products": [
      "Moonlight Mayhem",
      "Ryes of the Robots"
    ]
  },
  {
    "name": "FIRST LIQUORS",
    "address": "7629 QUIVIRA ROAD",
    "city": "SHAWNEE",
    "state": "KS",
    "zip": "66216",
    "phone": "(479) 250-8120",
    "type": "",
    "lat": 38.9895113,
    "lng": -94.7232393,
    "products": [
      "Moonlight Mayhem Extended Cut",
      "Quadraforce Blended Bourbon",
      "Ryes of the Robots"
    ]
  },
  {
    "name": "CENTRAL MARKET WINE & SPI",
    "address": "4729 E CENTRAL AVENUE",
    "city": "WICHITA",
    "state": "KS",
    "zip": "67208",
    "phone": "(316) 260-1360",
    "type": "",
    "lat": 37.6934894,
    "lng": -97.2809106,
    "products": [
      "Moonlight Mayhem 2 White Port Wolf"
    ]
  },
  {
    "name": "PARTYLINE LIQUOR",
    "address": "1028 SE LOUIS STREET",
    "city": "MULVANE",
    "state": "KS",
    "zip": "67110",
    "phone": "(316) 777-1500",
    "type": "",
    "lat": 37.4859494,
    "lng": -97.2422682,
    "products": [
      "Moonlight Mayhem 2 White Port Wolf"
    ]
  },
  {
    "name": "DIX LIQUORS",
    "address": "12028 W 95TH ST",
    "city": "LENEXA",
    "state": "KS",
    "zip": "66215",
    "phone": "(913) 262-3181",
    "type": "",
    "lat": 38.957629,
    "lng": -94.7254489,
    "products": [
      "Moonlight Mayhem",
      "Moonlight Mayhem Extended Cut",
      "Ryes of the Robots"
    ]
  },
  {
    "name": "159TH METCALF LIQ N CIGAR",
    "address": "15895 METCALF AVE",
    "city": "OVERLAND PARK",
    "state": "KS",
    "zip": "66223",
    "phone": "(913) 302-2211",
    "type": "",
    "lat": 38.8406548,
    "lng": -94.6671986,
    "products": [
      "Ryes of the Robots"
    ]
  },
  {
    "name": "MASS BEVERAGE",
    "address": "3131A NIEDER ROAD",
    "city": "LAWRENCE",
    "state": "KS",
    "zip": "66047",
    "phone": "(785) 856-7055",
    "type": "",
    "lat": 38.9270366,
    "lng": -95.2634649,
    "products": [
      "Moonlight Mayhem",
      "Town at the End of Tomorrow"
    ]
  },
  {
    "name": "OASIS LIQUOR",
    "address": "17520 NEW TRAILS PARKWAY",
    "city": "GARDNER",
    "state": "KS",
    "zip": "66030",
    "phone": "(913) 827-3675",
    "type": "",
    "lat": 38.8100582,
    "lng": -94.8761175,
    "products": [
      "Moonlight Mayhem",
      "Ryes of the Robots"
    ]
  },
  {
    "name": "FLEMING PLACE WINE&SPRT A6%",
    "address": "4001 S W 10TH STREET",
    "city": "TOPEKA",
    "state": "KS",
    "zip": "66604",
    "phone": "(785) 272-6008",
    "type": "",
    "lat": 39.0503216,
    "lng": -95.7271345,
    "products": [
      "Moonlight Mayhem",
      "Ryes of the Robots"
    ]
  },
  {
    "name": "PHATZ LIQUOR",
    "address": "1024 W 8TH ST",
    "city": "WELLINGTON",
    "state": "KS",
    "zip": "67152",
    "phone": "(620) 359-1626",
    "type": "",
    "lat": 37.2670413,
    "lng": -97.4103597,
    "products": [
      "Moonlight Mayhem",
      "Ryes of the Robots"
    ]
  },
  {
    "name": "LIQUOR HOUSE",
    "address": "22731 W 55TH TERRACE",
    "city": "SHAWNEE",
    "state": "KS",
    "zip": "66226",
    "phone": "(785) 640-8415",
    "type": "",
    "lat": 39.027738,
    "lng": -94.850082,
    "products": [
      "Moonlight Mayhem",
      "Moonlight Mayhem Extended Cut"
    ]
  },
  {
    "name": "LIBRARY LIQUOR",
    "address": "521 N 12TH",
    "city": "MANHATTAN",
    "state": "KS",
    "zip": "66502",
    "phone": "(785) 539-5269",
    "type": "",
    "lat": 39.1845812,
    "lng": -96.5750582,
    "products": [
      "Moonlight Mayhem"
    ]
  },
  {
    "name": "KINSALE WINE & SPIRITS",
    "address": "16517 W. 159TH ST",
    "city": "OLATHE",
    "state": "KS",
    "zip": "66062",
    "phone": "(913) 768-9420",
    "type": "",
    "lat": 38.8402399,
    "lng": -94.7772078,
    "products": [
      "Moonlight Mayhem"
    ]
  },
  {
    "name": "GARDNER LIQUOR",
    "address": "18345 S GARDNER ROAD",
    "city": "GARDNER",
    "state": "KS",
    "zip": "66030",
    "phone": "(913) 884-5235",
    "type": "",
    "lat": 38.7954347,
    "lng": -94.926817,
    "products": [
      "Moonlight Mayhem",
      "Ryes of the Robots"
    ]
  },
  {
    "name": "DAVID LIQUOR OUTLET",
    "address": "3331 E 47TH SOUTH",
    "city": "WICHITA",
    "state": "KS",
    "zip": "67216",
    "phone": "(316) 524-4634",
    "type": "",
    "lat": 37.6055041,
    "lng": -97.2960337,
    "products": [
      "Moonlight Mayhem",
      "Ryes of the Robots"
    ]
  },
  {
    "name": "KINGS LIQUOR",
    "address": "18589 WEST 151ST STREET",
    "city": "OLATHE",
    "state": "KS",
    "zip": "66062",
    "phone": "(913) 406-6888",
    "type": "",
    "lat": 38.8548392,
    "lng": -94.8051905,
    "products": [
      "Moonlight Mayhem"
    ]
  },
  {
    "name": "WHEATLAND LIQUOR",
    "address": "5600 W. MACARTHUR",
    "city": "WICHITA",
    "state": "KS",
    "zip": "67215",
    "phone": "(316) 522-1602",
    "type": "",
    "lat": 37.6229096,
    "lng": -97.4081974,
    "products": [
      "Ryes of the Robots"
    ]
  },
  {
    "name": "T TOWN LIQUOR",
    "address": "420 STONE CREEK DRIVE",
    "city": "TONGANOXIE",
    "state": "KS",
    "zip": "66086",
    "phone": "(913) 417-0065",
    "type": "",
    "lat": 39.1171714,
    "lng": -95.0662125,
    "products": [
      "Moonlight Mayhem",
      "Ryes of the Robots"
    ]
  },
  {
    "name": "WS HOSPITALITY",
    "address": "3636 N COMOTARA ST STE2",
    "city": "WICHITA",
    "state": "KS",
    "zip": "67226",
    "phone": "(316) 636-9100",
    "type": "",
    "lat": 37.7509956,
    "lng": -97.2361114,
    "products": [
      "Moonlight Mayhem"
    ]
  },
  {
    "name": "BING BROTHERS",
    "address": "1302 MAIN ST",
    "city": "WINFIELD",
    "state": "KS",
    "zip": "67156",
    "phone": "(620) 221-3826",
    "type": "",
    "lat": 37.2360394,
    "lng": -96.9967637,
    "products": [
      "Moonlight Mayhem"
    ]
  },
  {
    "name": "OSHAUGHNESSY LIQUOR",
    "address": "1211 EAST STREET",
    "city": "IOLA",
    "state": "KS",
    "zip": "66749",
    "phone": "(620) 365-5702",
    "type": "",
    "lat": 37.9219481,
    "lng": -95.3901356,
    "products": [
      "Moonlight Mayhem"
    ]
  },
  {
    "name": "BLU SKY LIQUORS",
    "address": "846 MAIN STREET",
    "city": "OTTAWA",
    "state": "KS",
    "zip": "66067",
    "phone": "(785) 242-1188",
    "type": "",
    "lat": 38.6049601,
    "lng": -95.2689792,
    "products": [
      "Moonlight Mayhem",
      "Ryes of the Robots",
      "Town at the End of Tomorrow"
    ]
  },
  {
    "name": "OLD TOWN LIQUORS",
    "address": "1529 BARDSTOWN RD",
    "city": "LOUISVILLE",
    "state": "KY",
    "zip": "40204",
    "phone": "",
    "type": "",
    "lat": 38.2315956,
    "lng": -85.707397,
    "products": [
      "Moonlight Mayhem",
      "Moonlight Mayhem 2 White Port Wolf",
      "Moonlight Mayhem Extended Cut",
      "Ryes of the Robot Extended Cut",
      "Ryes of the Robots"
    ]
  },
  {
    "name": "LIQUOR BARN #980",
    "address": "4131 TOWNE CENTER DR",
    "city": "LOUISVILLE",
    "state": "KY",
    "zip": "40241",
    "phone": "(502) 426-4222",
    "type": "",
    "lat": 38.2982876,
    "lng": -85.5575914,
    "products": [
      "Moonlight Mayhem",
      "Quadraforce Blended Bourbon",
      "Ryes of the Robots"
    ]
  },
  {
    "name": "FOOD CITY #458 W&S",
    "address": "215 CASSIDY BLVD STE 101",
    "city": "PIKEVILLE",
    "state": "KY",
    "zip": "41501",
    "phone": "(999) 999-9999",
    "type": "",
    "lat": 37.5039368,
    "lng": -82.5375059,
    "products": [
      "Moonlight Mayhem",
      "Moonlight Mayhem Extended Cut",
      "Ryes of the Robot Extended Cut",
      "Ryes of the Robots"
    ]
  },
  {
    "name": "COX S EVERGREEN LIQUOR#41",
    "address": "127 N 3RD ST.",
    "city": "BARDSTOWN",
    "state": "KY",
    "zip": "40004",
    "phone": "(502) 244-0065",
    "type": "",
    "lat": 37.8101841,
    "lng": -85.4660327,
    "products": [
      "Moonlight Mayhem Extended Cut",
      "Ryes of the Robots"
    ]
  },
  {
    "name": "TOTAL WINE SPIRITS BEER",
    "address": "161 LEXINGTON GREEN CIRCL",
    "city": "LEXINGTON",
    "state": "KY",
    "zip": "40503",
    "phone": "(270) 123-4567",
    "type": "",
    "lat": 37.9947634,
    "lng": -84.5241849,
    "products": [
      "Moonlight Mayhem"
    ]
  },
  {
    "name": "LIQUOR BARN  #920",
    "address": "1837 PLAUDIT PLACE",
    "city": "LEXINGTON",
    "state": "KY",
    "zip": "40509",
    "phone": "(859) 294-5700",
    "type": "",
    "lat": 38.0142619,
    "lng": -84.4196162,
    "products": [
      "Moonlight Mayhem",
      "Quadraforce Blended Bourbon",
      "Ryes of the Robots"
    ]
  },
  {
    "name": "LIQUOR BARN #960",
    "address": "1850 S HURSTBORNE PKWY",
    "city": "LOUISVILLE",
    "state": "KY",
    "zip": "40220",
    "phone": "(502) 491-0753",
    "type": "",
    "lat": 38.2198861,
    "lng": -85.584526,
    "products": [
      "Quadraforce Blended Bourbon",
      "Ryes of the Robots"
    ]
  },
  {
    "name": "THE PARTY SOURCE",
    "address": "95 RIVIERA DRIVE",
    "city": "BELLEVUE",
    "state": "KY",
    "zip": "41073",
    "phone": "(859) 291-4007",
    "type": "",
    "lat": 39.1001516,
    "lng": -84.4878491,
    "products": [
      "Moonlight Mayhem 2 White Port Wolf",
      "Moonlight Mayhem Extended Cut"
    ]
  },
  {
    "name": "THE BLIND PIG BOURBON MKT",
    "address": "212 N 3RD STREET",
    "city": "BARDSTOWN",
    "state": "KY",
    "zip": "40004",
    "phone": "(502) 388-9313",
    "type": "",
    "lat": 37.8109892,
    "lng": -85.4664616,
    "products": [
      "Ryes of the Robot Extended Cut",
      "Ryes of the Robots"
    ]
  },
  {
    "name": "LIQUOR BARN #903",
    "address": "921 BEAUMONT CENTER PKWY",
    "city": "LEXINGTON",
    "state": "KY",
    "zip": "40513",
    "phone": "(859) 223-1400",
    "type": "",
    "lat": 38.0158009,
    "lng": -84.5560464,
    "products": [
      "Quadraforce Blended Bourbon",
      "Ryes of the Robot Extended Cut"
    ]
  },
  {
    "name": "LIQUOR BARN #986",
    "address": "1705 N. DIXIE HWY  STE 1A",
    "city": "ELIZABETHTOWN",
    "state": "KY",
    "zip": "42701",
    "phone": "(270) 900-4446",
    "type": "",
    "lat": 37.7337398,
    "lng": -85.8843605,
    "products": [
      "Moonlight Mayhem Extended Cut",
      "Quadraforce Blended Bourbon"
    ]
  },
  {
    "name": "LIQUOR BARN #962",
    "address": "13401 SHELBYVILLE RD #134",
    "city": "LOUISVILLE",
    "state": "KY",
    "zip": "40243",
    "phone": "(502) 244-7738",
    "type": "",
    "lat": 38.2447483,
    "lng": -85.5056824,
    "products": [
      "Moonlight Mayhem Extended Cut"
    ]
  },
  {
    "name": "LIQUOR BARN EXPRESS #908",
    "address": "866 EAST HIGH STREET",
    "city": "LEXINGTON",
    "state": "KY",
    "zip": "40502",
    "phone": "(859) 269-3003",
    "type": "",
    "lat": 38.0286704,
    "lng": -84.4904456,
    "products": [
      "Moonlight Mayhem"
    ]
  },
  {
    "name": "OMNI HOTELS",
    "address": "400 S 2ND ST/210 W LIBERT",
    "city": "LOUISVILLE",
    "state": "KY",
    "zip": "40202",
    "phone": "(502) 313-6691",
    "type": "",
    "lat": 38.2522738,
    "lng": -85.754568,
    "products": [
      "Moonlight Mayhem 2 White Port Wolf",
      "Ryes of the Robot Extended Cut"
    ]
  },
  {
    "name": "EVERGREEN LIQUORS NULU",
    "address": "720 EAST MARKET STREET",
    "city": "LOUISVILLE",
    "state": "KY",
    "zip": "40202",
    "phone": "(502) 225-0101",
    "type": "",
    "lat": 38.2531994,
    "lng": -85.7392366,
    "products": [
      "Moonlight Mayhem Extended Cut"
    ]
  },
  {
    "name": "LIQUOR BARN #965",
    "address": "3614 BUECHEL BYPASS #101",
    "city": "LOUISVILLE",
    "state": "KY",
    "zip": "40218",
    "phone": "(502) 459-8989",
    "type": "",
    "lat": 38.1987265,
    "lng": -85.6639958,
    "products": [
      "Ryes of the Robots"
    ]
  },
  {
    "name": "NAVYA 16 LLC",
    "address": "8672 NASHVILLE RD.",
    "city": "BOWLING GREEN",
    "state": "KY",
    "zip": "42101",
    "phone": "(270) 495-1421",
    "type": "",
    "lat": 36.8905896,
    "lng": -86.5215296,
    "products": [
      "Moonlight Mayhem 2 White Port Wolf"
    ]
  },
  {
    "name": "COX S SMOKERS OUTLET #32",
    "address": "12017 SHELBYVILLE RD",
    "city": "LOUISVILLE",
    "state": "KY",
    "zip": "40243",
    "phone": "(502) 244-1957",
    "type": "",
    "lat": 38.2491826,
    "lng": -85.5322946,
    "products": [
      "Quadraforce Blended Bourbon"
    ]
  },
  {
    "name": "E-TOWN LIQUORS",
    "address": "2018 N. MULBERRY STREET",
    "city": "ELIZABETHTOWN",
    "state": "KY",
    "zip": "42701",
    "phone": "(270) 234-9463",
    "type": "",
    "lat": 37.7159495,
    "lng": -85.8255928,
    "products": [
      "Moonlight Mayhem"
    ]
  },
  {
    "name": "OVG KY EXPO CENTER #3284",
    "address": "937 PHILLIPS LN STE B",
    "city": "LOUISVILLE",
    "state": "KY",
    "zip": "40209",
    "phone": "(502) 367-5000",
    "type": "",
    "lat": 38.1995169,
    "lng": -85.7419677,
    "products": [
      "Moonlight Mayhem"
    ]
  },
  {
    "name": "PARTY MART #902",
    "address": "3050 BARDSTOWN RD",
    "city": "LOUISVILLE",
    "state": "KY",
    "zip": "40205",
    "phone": "(502) 452-1809",
    "type": "",
    "lat": 38.2128288,
    "lng": -85.6737695,
    "products": [
      "Moonlight Mayhem"
    ]
  },
  {
    "name": "LIQUOR BARN EXPRESS #901",
    "address": "4808 BROWNSBORO RD",
    "city": "LOUISVILLE",
    "state": "KY",
    "zip": "40207",
    "phone": "(502) 895-4446",
    "type": "",
    "lat": 38.2782911,
    "lng": -85.6372844,
    "products": [
      "Ryes of the Robots"
    ]
  },
  {
    "name": "THE BOURBON BARN",
    "address": "640 W HWY 92",
    "city": "WILLIAMSBURG",
    "state": "KY",
    "zip": "40769",
    "phone": "(423) 871-3115",
    "type": "",
    "lat": 36.7435845,
    "lng": -84.13638,
    "products": [
      "Moonlight Mayhem Extended Cut"
    ]
  },
  {
    "name": "JOHN O S LIQ &PARTY STOR",
    "address": "508 W DIXIE AVE.",
    "city": "ELIZABETHTOWN",
    "state": "KY",
    "zip": "42701",
    "phone": "(270) 982-5646",
    "type": "",
    "lat": 37.701006,
    "lng": -85.8683738,
    "products": [
      "Moonlight Mayhem Extended Cut"
    ]
  },
  {
    "name": "LIQUOR BARN #970",
    "address": "3420 FERN VALLEY RD",
    "city": "LOUISVILLE",
    "state": "KY",
    "zip": "40219",
    "phone": "(502) 968-1666",
    "type": "",
    "lat": 38.1561454,
    "lng": -85.6981753,
    "products": [
      "Moonlight Mayhem Extended Cut"
    ]
  },
  {
    "name": "LIQUOR BARN #990",
    "address": "2625 SCOTTSVILLE RD #3021",
    "city": "BOWLING GREEN",
    "state": "KY",
    "zip": "42104",
    "phone": "(270) 467-9974",
    "type": "",
    "lat": 36.9504019,
    "lng": -86.425122,
    "products": [
      "Ryes of the Robots"
    ]
  },
  {
    "name": "FRANKFORT AVENUE LIQUORS",
    "address": "2115 FRANKFORT AVE",
    "city": "LOUISVILLE",
    "state": "KY",
    "zip": "40206",
    "phone": "(502) 797-1984",
    "type": "",
    "lat": 38.2542289,
    "lng": -85.7077803,
    "products": [
      "Moonlight Mayhem Extended Cut"
    ]
  },
  {
    "name": "THE VOLSTEAD BRBN LOUNGE",
    "address": "107 E FLAGET ST",
    "city": "BARDSTOWN",
    "state": "KY",
    "zip": "40004",
    "phone": "(502) 931-7482",
    "type": "",
    "lat": 37.8102261,
    "lng": -85.465698,
    "products": [
      "Ryes of the Robots"
    ]
  },
  {
    "name": "BOURBON S BISTRO",
    "address": "2255 FRANKFORT AVE",
    "city": "LOUISVILLE",
    "state": "KY",
    "zip": "40206",
    "phone": "(502) 894-8838",
    "type": "",
    "lat": 38.2535835,
    "lng": -85.7039688,
    "products": [
      "Moonlight Mayhem Extended Cut"
    ]
  },
  {
    "name": "WINE BEER & SPIRITS",
    "address": "3435 OAKVIEW DRIVE",
    "city": "OMAHA",
    "state": "NE",
    "zip": "68144",
    "phone": "(402) 613-2366",
    "type": "",
    "lat": 41.2262793,
    "lng": -96.1369337,
    "products": [
      "Moonlight Mayhem",
      "Moonlight Mayhem 2 White Port Wolf",
      "Moonlight Mayhem Extended Cut",
      "Quadraforce Blended Bourbon",
      "Ryes of the Robot Extended Cut",
      "Ryes of the Robots"
    ]
  },
  {
    "name": "HY-VEE WALL TO WALL WINE & SPIRITS",
    "address": "7651 TOWNE CENTER PKWY",
    "city": "PAPILLION",
    "state": "NE",
    "zip": "68046",
    "phone": "",
    "type": "",
    "lat": 41.1329214,
    "lng": -96.0288225,
    "products": [
      "Moonlight Mayhem",
      "Moonlight Mayhem 2 White Port Wolf",
      "Moonlight Mayhem Extended Cut",
      "Ryes of the Robot Extended Cut"
    ]
  },
  {
    "name": "HY-VEE #2",
    "address": "1601 N. 84TH ST.",
    "city": "LINCOLN",
    "state": "NE",
    "zip": "68112",
    "phone": "(402) 467-5505",
    "type": "",
    "lat": 40.8293991,
    "lng": -96.6082599,
    "products": [
      "Moonlight Mayhem",
      "Moonlight Mayhem 2 White Port Wolf",
      "Ryes of the Robots"
    ]
  },
  {
    "name": "WINE BEER & SPIRITS (GI)",
    "address": "1111 ALLEN DR",
    "city": "GRAND ISLAND",
    "state": "NE",
    "zip": "68803",
    "phone": "",
    "type": "",
    "lat": 40.9286567,
    "lng": -98.3802229,
    "products": [
      "Moonlight Mayhem",
      "Moonlight Mayhem 2 White Port Wolf",
      "Moonlight Mayhem Extended Cut",
      "Quadraforce Blended Bourbon",
      "Ryes of the Robot Extended Cut",
      "Ryes of the Robots"
    ]
  },
  {
    "name": "WINE BEER & SPIRITS",
    "address": "5220 N 27TH STREET",
    "city": "LINCOLN",
    "state": "NE",
    "zip": "68521",
    "phone": "(402) 613-2366",
    "type": "",
    "lat": 40.8630293,
    "lng": -96.6803522,
    "products": [
      "Moonlight Mayhem",
      "Moonlight Mayhem 2 White Port Wolf",
      "Moonlight Mayhem Extended Cut",
      "Quadraforce Blended Bourbon",
      "Ryes of the Robot Extended Cut",
      "Ryes of the Robots"
    ]
  },
  {
    "name": "QUAIL - BREAKAGE",
    "address": ".",
    "city": "OMAHA",
    "state": "NE",
    "zip": "68138",
    "phone": "",
    "type": "",
    "lat": 41.1675179,
    "lng": -96.1420947,
    "products": [
      "Moonlight Mayhem",
      "Moonlight Mayhem 2 White Port Wolf",
      "Moonlight Mayhem Extended Cut",
      "Ryes of the Robot Extended Cut",
      "Ryes of the Robots"
    ]
  },
  {
    "name": "HY-VEE PAPIO 1514",
    "address": "11650 SO. 73RD STREET",
    "city": "PAPILLION",
    "state": "NE",
    "zip": "68046",
    "phone": "",
    "type": "",
    "lat": 41.1352302,
    "lng": -96.0267313,
    "products": [
      "Moonlight Mayhem 2 White Port Wolf",
      "Moonlight Mayhem Extended Cut"
    ]
  },
  {
    "name": "BOTTLES & BARRELS",
    "address": "5331 S 204TH AVE",
    "city": "OMAHA",
    "state": "NE",
    "zip": "68022",
    "phone": "(531) 999-8515",
    "type": "",
    "lat": 41.2029845,
    "lng": -96.2351108,
    "products": [
      "Moonlight Mayhem 2 White Port Wolf",
      "Moonlight Mayhem Extended Cut"
    ]
  },
  {
    "name": "DUNDEE DELL",
    "address": "5007 UNDERWOOD AVE",
    "city": "OMAHA",
    "state": "NE",
    "zip": "68132",
    "phone": "(402) 689-7891",
    "type": "",
    "lat": 41.2648401,
    "lng": -95.9906475,
    "products": [
      "Moonlight Mayhem 2 White Port Wolf",
      "Ryes of the Robots"
    ]
  },
  {
    "name": "MAIN STREET CELLAR",
    "address": "2714 N MAIN ST",
    "city": "OMAHA",
    "state": "NE",
    "zip": "68022",
    "phone": "(402) 249-9766",
    "type": "",
    "lat": 41.2836343,
    "lng": -96.2369348,
    "products": [
      "Moonlight Mayhem",
      "Ryes of the Robots"
    ]
  },
  {
    "name": "BUCK S BAR & GRILL",
    "address": "27849 W CENTER RD",
    "city": "OMAHA",
    "state": "NE",
    "zip": "68069",
    "phone": "(402) 359-4322",
    "type": "",
    "lat": 41.233391,
    "lng": -96.3521196,
    "products": [
      "Moonlight Mayhem 2 White Port Wolf"
    ]
  },
  {
    "name": "BAR INNER RAIL FOOD HALL",
    "address": "1911 SOUTH 67TH ST",
    "city": "OMAHA",
    "state": "NE",
    "zip": "68106",
    "phone": "(531) 466-7484",
    "type": "",
    "lat": 41.2405221,
    "lng": -96.0143034,
    "products": [
      "Moonlight Mayhem"
    ]
  },
  {
    "name": "SAMPLES EVENT",
    "address": "SAMPLES",
    "city": "OMAHA",
    "state": "NE",
    "zip": "68138",
    "phone": "",
    "type": "",
    "lat": 41.1675179,
    "lng": -96.1420947,
    "products": [
      "Moonlight Mayhem 2 White Port Wolf"
    ]
  },
  {
    "name": "QUAIL DISTRIBUTING - SAMPLES",
    "address": "7735 SOUTH 134TH STREET",
    "city": "OMAHA",
    "state": "NE",
    "zip": "68138",
    "phone": "(402) 926-2395",
    "type": "",
    "lat": 41.1817963,
    "lng": -96.1241541,
    "products": [
      "Quadraforce Blended Bourbon"
    ]
  },
  {
    "name": "Cost Low Wines & Liquors",
    "address": "91-20 59th Ave",
    "city": "Elmhurst",
    "state": "NY",
    "zip": "11373",
    "phone": "",
    "type": "",
    "lat": 40.733893,
    "lng": -73.8696362,
    "products": [
      "Moonlight Mayhem 2 White Port Wolf"
    ]
  },
  {
    "name": "Angel s Share Wine and Spirits",
    "address": "4599 State Route 31",
    "city": "Clay",
    "state": "NY",
    "zip": "13041",
    "phone": "",
    "type": "",
    "lat": 43.1877759,
    "lng": -76.1975729,
    "products": [
      "Moonlight Mayhem",
      "Moonlight Mayhem 2 White Port Wolf",
      "Moonlight Mayhem Extended Cut"
    ]
  },
  {
    "name": "Allerton Ave Liquors",
    "address": "689-691 Allerton Ave",
    "city": "Bronx",
    "state": "NY",
    "zip": "10467",
    "phone": "",
    "type": "",
    "lat": 40.8656045,
    "lng": -73.8678051,
    "products": [
      "Moonlight Mayhem 2 White Port Wolf",
      "Quadraforce Blended Bourbon"
    ]
  },
  {
    "name": "Rudy s Liquor Store",
    "address": "143 Main St",
    "city": "Cooperstown",
    "state": "NY",
    "zip": "13326",
    "phone": "",
    "type": "",
    "lat": 42.7007481,
    "lng": -74.9264645,
    "products": [
      "Moonlight Mayhem",
      "Ryes of the Robots"
    ]
  },
  {
    "name": "Gary s Liquor",
    "address": "141 Essex St",
    "city": "New York",
    "state": "NY",
    "zip": "10002",
    "phone": "",
    "type": "",
    "lat": 40.7204653,
    "lng": -73.9875268,
    "products": [
      "Ryes of the Robots"
    ]
  },
  {
    "name": "Greenfield Wine & Liquor",
    "address": "2534 NYS Rte 9N",
    "city": "Greenfield Cent",
    "state": "NY",
    "zip": "12833",
    "phone": "",
    "type": "",
    "lat": 43.1398971,
    "lng": -73.8493182,
    "products": [
      "Moonlight Mayhem 2 White Port Wolf"
    ]
  },
  {
    "name": "Liquor Lineup 2",
    "address": "Elite Wine and Spirits Inc",
    "city": "North Las Vegas",
    "state": "NV",
    "zip": "89031",
    "phone": "(702) 616-0311",
    "type": "",
    "lat": 36.2608162,
    "lng": -115.1711298,
    "products": [
      "Moonlight Mayhem"
    ]
  },
  {
    "name": "Liquor Outlet The",
    "address": "Vergiels Enterprises LLC",
    "city": "Las Vegas",
    "state": "NV",
    "zip": "89123",
    "phone": "(702) 897-9463",
    "type": "",
    "lat": 36.0357492,
    "lng": -115.1533426,
    "products": [
      "Moonlight Mayhem",
      "Ryes of the Robots"
    ]
  },
  {
    "name": "Lee s Discount Liquor #05 - E Flami",
    "address": "Flamingo & Pecos Inc",
    "city": "Las Vegas",
    "state": "NV",
    "zip": "89121",
    "phone": "",
    "type": "",
    "lat": 36.1151458,
    "lng": -115.1007957,
    "products": [
      "Moonlight Mayhem Extended Cut",
      "Ryes of the Robot Extended Cut",
      "Ryes of the Robots"
    ]
  },
  {
    "name": "Cask The",
    "address": "Native Vegas LLC",
    "city": "Henderson",
    "state": "NV",
    "zip": "89012",
    "phone": "(702) 338-1348",
    "type": "",
    "lat": 36.0161023,
    "lng": -115.0584612,
    "products": [
      "Moonlight Mayhem"
    ]
  },
  {
    "name": "Lee s Discount Liquor - Wendover",
    "address": "Lee s Family Inc",
    "city": "Wendover",
    "state": "NV",
    "zip": "89883",
    "phone": "(775) 299-3033",
    "type": "",
    "lat": 40.7384668,
    "lng": -114.0697655,
    "products": [
      "Ryes of the Robots"
    ]
  },
  {
    "name": "Lee s Discount Liquor - Azure Tenay",
    "address": "Lee & Azure Tenaya Inc",
    "city": "Las Vegas",
    "state": "NV",
    "zip": "89130",
    "phone": "",
    "type": "",
    "lat": 36.273261,
    "lng": -115.254867,
    "products": [
      "Moonlight Mayhem",
      "Ryes of the Robot Extended Cut"
    ]
  },
  {
    "name": "Oak & Ivy",
    "address": "Container Bar LLC",
    "city": "Las Vegas",
    "state": "NV",
    "zip": "89101",
    "phone": "(702) 945-6717",
    "type": "",
    "lat": 36.1687708,
    "lng": -115.1405355,
    "products": [
      "Moonlight Mayhem",
      "Moonlight Mayhem Extended Cut",
      "Ryes of the Robots"
    ]
  },
  {
    "name": "Lee s Discount Liquor - Blue Diamon",
    "address": "Blue Diamond Liquor LLC",
    "city": "Las Vegas",
    "state": "NV",
    "zip": "89139",
    "phone": "",
    "type": "",
    "lat": 36.0402159,
    "lng": -115.2244853,
    "products": [
      "Ryes of the Robots"
    ]
  },
  {
    "name": "Lee s Discount Liquor #09 - Mesquit",
    "address": "Lee s Family Inc",
    "city": "Mesquite",
    "state": "NV",
    "zip": "89027",
    "phone": "",
    "type": "",
    "lat": 36.8106194,
    "lng": -114.0875963,
    "products": [
      "Moonlight Mayhem Extended Cut",
      "Ryes of the Robots"
    ]
  },
  {
    "name": "Lee s Discount Liquor #03 - Lake Me",
    "address": "Lee s Family Inc",
    "city": "Las Vegas",
    "state": "NV",
    "zip": "89128",
    "phone": "",
    "type": "",
    "lat": 36.19537,
    "lng": -115.254814,
    "products": [
      "Ryes of the Robots"
    ]
  },
  {
    "name": "Lee s Discount Liquor #16 - Boca Pa",
    "address": "Lee s Family Inc",
    "city": "Las Vegas",
    "state": "NV",
    "zip": "89145",
    "phone": "",
    "type": "",
    "lat": 36.163412,
    "lng": -115.2905881,
    "products": [
      "Moonlight Mayhem Extended Cut"
    ]
  },
  {
    "name": "Lee s Discount Liquor - Northtowne",
    "address": "Northtowne & Lee Inc",
    "city": "Reno",
    "state": "NV",
    "zip": "89512",
    "phone": "",
    "type": "",
    "lat": 39.553787,
    "lng": -119.7831443,
    "products": [
      "Ryes of the Robots"
    ]
  },
  {
    "name": "Lee s Discount Liquor - Las Vegas",
    "address": "Lee s Family Inc",
    "city": "Las Vegas",
    "state": "NV",
    "zip": "89123",
    "phone": "",
    "type": "",
    "lat": 36.0192187,
    "lng": -115.0813502,
    "products": [
      "Moonlight Mayhem Extended Cut"
    ]
  },
  {
    "name": "Liquor Outlet The #3",
    "address": "Vergiels Enterprises LLC",
    "city": "Las Vegas",
    "state": "NV",
    "zip": "89139",
    "phone": "(702) 294-0501",
    "type": "",
    "lat": 36.0402159,
    "lng": -115.2244853,
    "products": [
      "Ryes of the Robots"
    ]
  },
  {
    "name": "Lee s Discount Liquor #15 - Flambow",
    "address": "Flamingo & Lee Inc",
    "city": "Las Vegas",
    "state": "NV",
    "zip": "89103",
    "phone": "",
    "type": "",
    "lat": 36.1007538,
    "lng": -115.2433483,
    "products": [
      "Ryes of the Robot Extended Cut"
    ]
  },
  {
    "name": "Lee s Discount Liquor #08 - Eastern",
    "address": "Lee s Family Inc",
    "city": "Henderson",
    "state": "NV",
    "zip": "89052",
    "phone": "",
    "type": "",
    "lat": 36.0192187,
    "lng": -115.0813502,
    "products": [
      "Ryes of the Robot Extended Cut"
    ]
  },
  {
    "name": "Lee s Discount Liquor - S Virginia",
    "address": "Lee & S Virginia Inc",
    "city": "Reno",
    "state": "NV",
    "zip": "89511",
    "phone": "(775) 525-7402",
    "type": "",
    "lat": 39.4069407,
    "lng": -119.7489994,
    "products": [
      "Moonlight Mayhem Extended Cut"
    ]
  },
  {
    "name": "Lee s Discount Liquor #01 - Sunset",
    "address": "Lee s Family Inc",
    "city": "Henderson",
    "state": "NV",
    "zip": "89014",
    "phone": "",
    "type": "",
    "lat": 36.0192187,
    "lng": -115.0813502,
    "products": [
      "Ryes of the Robot Extended Cut"
    ]
  },
  {
    "name": "Lee s Discount Liquor #07 - W Flami",
    "address": "West Flamingo & Fort Apache Inc",
    "city": "Las Vegas",
    "state": "NV",
    "zip": "89147",
    "phone": "",
    "type": "",
    "lat": 36.1150101,
    "lng": -115.2971032,
    "products": [
      "Ryes of the Robots"
    ]
  },
  {
    "name": "Lee s Discount Liquor #21 - El Capi",
    "address": "El Capitan & Lee Inc",
    "city": "Las Vegas",
    "state": "NV",
    "zip": "89143",
    "phone": "",
    "type": "",
    "lat": 36.3148371,
    "lng": -115.2876438,
    "products": [
      "Moonlight Mayhem Extended Cut"
    ]
  },
  {
    "name": "Carson Kitchen",
    "address": "Carson Six Holdings LLC",
    "city": "Las Vegas",
    "state": "NV",
    "zip": "89101",
    "phone": "(702) 473-9523",
    "type": "",
    "lat": 36.1661146,
    "lng": -115.1368652,
    "products": [
      "Ryes of the Robots"
    ]
  },
  {
    "name": "Lee s Discount Liquor - Horizon Rid",
    "address": "Lee s Family Inc",
    "city": "Henderson",
    "state": "NV",
    "zip": "89012",
    "phone": "",
    "type": "",
    "lat": 36.0192187,
    "lng": -115.0813502,
    "products": [
      "Moonlight Mayhem Extended Cut"
    ]
  },
  {
    "name": "Scissors & Scotch",
    "address": "S & S Islay LLC",
    "city": "Las Vegas",
    "state": "NV",
    "zip": "89145",
    "phone": "(702) 430-2333",
    "type": "",
    "lat": 36.171563,
    "lng": -115.1391009,
    "products": [
      "Moonlight Mayhem"
    ]
  },
  {
    "name": "Tilling House",
    "address": "2000 Lowther Drive",
    "city": "Eatontown",
    "state": "NJ",
    "zip": "7724",
    "phone": "",
    "type": "",
    "lat": 40.3014363,
    "lng": -74.0762757,
    "products": [
      "Moonlight Mayhem",
      "Moonlight Mayhem 2 White Port Wolf",
      "Moonlight Mayhem Extended Cut",
      "Ryes of the Robots"
    ]
  },
  {
    "name": "Trevor s 2",
    "address": "Coattails II LLC",
    "city": "Phoenix",
    "state": "AZ",
    "zip": "85054",
    "phone": "(480) 209-8739",
    "type": "",
    "lat": 33.6923299,
    "lng": -111.9403254,
    "products": [
      "Moonlight Mayhem"
    ]
  },
  {
    "name": "Trevor s 4",
    "address": "Coattails Iv LLC",
    "city": "Phoenix",
    "state": "AZ",
    "zip": "85032",
    "phone": "(480) 680-1719",
    "type": "",
    "lat": 33.6364503,
    "lng": -112.0118669,
    "products": [
      "Moonlight Mayhem"
    ]
  },
  {
    "name": "Batch Cafe & Bar",
    "address": "Barrio Brothers LLC",
    "city": "Tucson",
    "state": "AZ",
    "zip": "85701",
    "phone": "",
    "type": "",
    "lat": 32.2102618,
    "lng": -110.7629299,
    "products": [
      "Ryes of the Robots"
    ]
  },
  {
    "name": "Trevor s 3",
    "address": "Coattails III  LLC",
    "city": "Phoenix",
    "state": "AZ",
    "zip": "85018",
    "phone": "(480) 680-1719",
    "type": "",
    "lat": 33.4962205,
    "lng": -111.9641728,
    "products": [
      "Ryes of the Robots"
    ]
  },
  {
    "name": "Liquor Dan",
    "address": "Donut Wheel Inc",
    "city": "Tucson",
    "state": "AZ",
    "zip": "85706",
    "phone": "(520) 294-4313",
    "type": "",
    "lat": 32.133541,
    "lng": -110.979374,
    "products": [
      "Moonlight Mayhem",
      "Moonlight Mayhem Extended Cut Single Barrel",
      "Quadraforce Blended Bourbon"
    ]
  },
  {
    "name": "Plaza Liquors",
    "address": "2642 N Campbell",
    "city": "Tucson",
    "state": "AZ",
    "zip": "85719",
    "phone": "(520) 327-0452",
    "type": "",
    "lat": 32.2549903,
    "lng": -110.9439136,
    "products": [
      "Moonlight Mayhem",
      "Moonlight Mayhem Extended Cut"
    ]
  },
  {
    "name": "Mountain Shadows",
    "address": "Westroc Hotels & Resorts LLC",
    "city": "Paradise Valley",
    "state": "AZ",
    "zip": "85253",
    "phone": "(602) 769-3338",
    "type": "",
    "lat": 33.6244161,
    "lng": -111.9217645,
    "products": [
      "Quadraforce Blended Bourbon"
    ]
  },
  {
    "name": "J s West Side Liquor",
    "address": "Sahara Liquor LLC",
    "city": "Tucson",
    "state": "AZ",
    "zip": "85745",
    "phone": "",
    "type": "",
    "lat": 32.3047285,
    "lng": -111.0296786,
    "products": [
      "Ryes of the Robots"
    ]
  },
  {
    "name": "Tenino IGA Market Fresh",
    "address": "Kirby Co",
    "city": "Tenino",
    "state": "WA",
    "zip": "98589",
    "phone": "",
    "type": "",
    "lat": 46.8567662,
    "lng": -122.8529094,
    "products": [
      "Moonlight Mayhem",
      "Moonlight Mayhem Extended Cut"
    ]
  },
  {
    "name": "QFC 807 U-Village",
    "address": "Fred Meyers Stores Inc",
    "city": "Seattle",
    "state": "WA",
    "zip": "98105",
    "phone": "",
    "type": "",
    "lat": 47.6600943,
    "lng": -122.368277,
    "products": [
      "Town at the End of Tomorrow"
    ]
  },
  {
    "name": "West Seattle Liquor & Wine",
    "address": "EPHA LLC",
    "city": "Seattle",
    "state": "WA",
    "zip": "98116",
    "phone": "(206) 234-8164",
    "type": "",
    "lat": 47.5745802,
    "lng": -122.4047843,
    "products": [
      "Ryes of the Robot Extended Cut"
    ]
  },
  {
    "name": "Flat Iron Grill",
    "address": "Epiphany Restaurants LLC",
    "city": "Issaquah",
    "state": "WA",
    "zip": "98027",
    "phone": "",
    "type": "",
    "lat": 47.5300699,
    "lng": -122.0329148,
    "products": [
      "Ryes of the Robot Extended Cut"
    ]
  }
]